City_ID,City,Lat,Lng,Max Temp,Humidity,Cloudiness,Wind Speed,Country,Date
0,sainte-anne-des-monts,49.124,-66.4924,18.93,63,{'all': 100},1.9,CA,1691506800
1,queenstown,-31.8976,26.8753,17.8,38,{'all': 85},3.15,ZA,1691506800
2,hermanus,-34.4187,19.2345,16.56,71,{'all': 46},5.64,ZA,1691506800
3,dryden,49.7833,-92.7503,20.03,94,{'all': 40},1.88,CA,1691506800
4,sandnessjoen,66.0217,12.6316,27.06,50,{'all': 20},7.18,NO,1691506800
5,palapag,12.5458,125.1147,26.93,84,{'all': 14},3.84,PH,1691506800
6,seferihisar,38.1969,26.839,35.28,38,{'all': 0},6.43,TR,1691506800
7,rongelap,11.1635,166.8941,28.25,79,{'all': 31},6.72,MH,1691506800
8,grytviken,-54.2811,-36.5092,-4.04,81,{'all': 22},3.58,GS,1691506800
9,waitangi,-43.9535,-176.5597,9.34,95,{'all': 100},1.4,NZ,1691506800
10,staroleushkovskaya,45.9906,39.7631,36.61,22,{'all': 0},3.25,RU,1691506800
11,tolanaro,-25.0319,46.9987,24.04,73,{'all': 75},5.12,MG,1691506800
12,yaren,-0.5472,166.916,27.94,72,{'all': 94},3.07,NR,1691506800
13,ancud,-41.8697,-73.8203,9.02,92,{'all': 100},2.93,CL,1691506800
14,nabire,-3.3667,135.4833,24.42,88,{'all': 97},2.09,ID,1691506800
15,port-aux-francais,-49.35,70.2167,1.56,77,{'all': 90},15.96,TF,1691506800
16,korem,12.5058,39.5228,20.73,52,{'all': 99},3.49,ET,1691506800
17,uturoa,-16.7333,-151.4333,25.34,78,{'all': 75},1.7,PF,1691506800
18,cabo san lucas,22.8909,-109.9124,30.72,51,{'all': 0},6.19,MX,1691506800
19,stanley,54.868,-1.6985,17.74,54,{'all': 40},6.48,GB,1691506800
20,edinburgh of the seven seas,-37.0676,-12.3116,14.94,85,{'all': 40},19.83,SH,1691506800
21,adamstown,-25.066,-130.1015,22.1,86,{'all': 99},11.73,PN,1691506800
22,olonkinbyen,70.9221,-8.7187,4.88,90,{'all': 100},5.89,SJ,1691506800
23,palikir - national government center,6.9248,158.1611,27.42,94,{'all': 100},6.03,FM,1691506800
24,blackmans bay,-43.0167,147.3167,5.73,94,{'all': 68},2.29,AU,1691506800
25,ushuaia,-54.8,-68.3,2.81,87,{'all': 0},2.12,AR,1691506800
26,atafu village,-8.5421,-172.5159,27.96,73,{'all': 30},5.5,TK,1691506800
27,severo-yeniseyskiy,60.3725,93.0408,12.61,97,{'all': 93},1.98,RU,1691506800
28,puerto natales,-51.7236,-72.4875,1.12,75,{'all': 78},0.9,CL,1691506800
29,whitehorse,60.7161,-135.0538,14.27,85,{'all': 100},0.79,CA,1691506800
30,bethel,41.3712,-73.414,23.47,83,{'all': 40},2.85,US,1691506800
31,ribeira grande,38.5167,-28.7,25.22,78,{'all': 40},6.08,PT,1691506800
32,qaqortoq,60.7167,-46.0333,6.77,74,{'all': 0},3.91,GL,1691506800
33,colonia menno,-22.3667,-59.8167,26.28,55,{'all': 26},3.35,PY,1691506800
34,west island,-12.1568,96.8225,25.99,83,{'all': 75},8.44,CC,1691506800
35,santo antonio,-6.3106,-35.4789,28.31,60,{'all': 91},4.89,BR,1691506800
36,papatowai,-46.5619,169.4708,5.34,92,{'all': 100},4.31,NZ,1691506800
37,bredasdorp,-34.5322,20.0403,14.7,66,{'all': 76},3.7,ZA,1691506800
38,cruzeiro do sul,-29.5128,-51.9853,17.87,71,{'all': 16},3.46,BR,1691506800
39,tiksi,71.6872,128.8694,9.45,75,{'all': 14},0.34,RU,1691506800
40,yellowknife,62.456,-114.3525,14.36,82,{'all': 20},6.18,CA,1691506800
41,taltal,-25.4,-70.4833,18.27,67,{'all': 0},3.1,CL,1691506800
42,lihue,21.9789,-159.3672,25.47,77,{'all': 100},9.65,US,1691506800
43,sparti,37.0733,22.4297,31.08,36,{'all': 0},3.24,GR,1691506800
44,la ronge,55.1001,-105.2842,12.14,87,{'all': 100},2.76,CA,1691506800
45,invercargill,-46.4,168.35,4.45,94,{'all': 100},3.16,NZ,1691506800
46,hammerfest,70.6634,23.6821,22.34,68,{'all': 0},5.64,NO,1691506800
47,acarau,-2.8856,-40.12,31.28,53,{'all': 27},7.7,BR,1691506800
48,dehui,44.5333,125.7,19.17,95,{'all': 18},2.09,CN,1691506800
49,petropavlovsk-kamchatsky,53.0452,158.6483,11.56,87,{'all': 0},5.1,RU,1691506800
50,bhadrachalam,17.6667,80.8833,26.83,80,{'all': 74},1.15,IN,1691506800
51,thompson,55.7435,-97.8558,10.09,93,{'all': 100},3.73,CA,1691506800
52,hilo,19.7297,-155.09,23.65,75,{'all': 100},2.26,US,1691506800
53,kurmuk,10.55,34.2833,24.38,91,{'all': 89},1.4,SD,1691506800
54,iqaluit,63.7506,-68.5145,5.99,86,{'all': 75},4.88,CA,1691506800
55,lospalos,-8.5186,127.0025,19.82,88,{'all': 30},2.88,TL,1691506800
56,remire-montjoly,4.9167,-52.2667,31.02,62,{'all': 100},5.13,GF,1691506800
57,yashkul',46.1711,45.3435,39.67,21,{'all': 1},2.75,RU,1691506800
58,broken hill,-31.95,141.4333,9.82,58,{'all': 2},2.57,AU,1691506800
59,richards bay,-28.783,32.0377,22.23,58,{'all': 0},4.7,ZA,1691506800
60,port elizabeth,-33.918,25.5701,18.16,68,{'all': 40},7.28,ZA,1691506800
61,nemuro,43.3236,145.575,17.21,100,{'all': 100},2.09,JP,1691506800
62,namtsy,62.7161,129.6658,11.62,66,{'all': 46},1.33,RU,1691506800
63,lae,-6.7221,146.9847,22.98,87,{'all': 48},1.45,PG,1691506800
64,margaret river,-33.95,115.0667,13.31,52,{'all': 88},7.16,AU,1691506800
65,tofol,5.3248,163.0078,27.48,78,{'all': 88},2.55,FM,1691506800
66,nyurba,63.2842,118.3319,17.3,58,{'all': 0},2.68,RU,1691506800
67,atherton,53.5237,-2.4935,18.71,63,{'all': 100},4.53,GB,1691506800
68,richfield,44.8833,-93.283,24.57,77,{'all': 0},2.09,US,1691506800
69,lensk,60.7253,114.9278,19.57,77,{'all': 29},1.92,RU,1691506800
70,chilecito,-29.1619,-67.4974,10.62,35,{'all': 99},2.91,AR,1691506800
71,sinabang,2.4803,96.3801,26.24,79,{'all': 100},1.83,ID,1691506800
72,punta arenas,-53.15,-70.9167,2.02,78,{'all': 100},1.26,CL,1691506800
73,praia da vitoria,38.7333,-27.0667,27.14,69,{'all': 40},2.67,PT,1691506800
74,senanga,-16.1167,23.2667,30.1,13,{'all': 6},4.14,ZM,1691506800
75,chonchi,-42.6128,-73.8092,10.11,94,{'all': 100},2.1,CL,1691506800
76,sinop,41.7711,34.8709,24.24,79,{'all': 63},3.67,TR,1691506800
77,isafjordur,66.0755,-23.124,13.12,93,{'all': 20},3.19,IS,1691506800
78,beau vallon,-20.4189,57.6953,23.13,73,{'all': 75},6.17,MU,1691506800
79,geraldton,-28.7667,114.6,16.28,88,{'all': 100},5.81,AU,1691506800
80,nar'yan-mar,67.6713,53.087,17.26,51,{'all': 64},3.28,RU,1691506800
81,katsuura,35.1333,140.3,27.01,94,{'all': 95},4.87,JP,1691506800
82,maintirano,-18.0667,44.0167,23.64,74,{'all': 0},6.79,MG,1691506800
83,fale old settlement,-9.3852,-171.2468,28.22,71,{'all': 68},6.09,TK,1691506800
84,nova sintra,14.8667,-24.7167,22.44,73,{'all': 11},6.23,CV,1691506800
85,enewetak,11.3474,162.3373,28.44,78,{'all': 90},5.53,MH,1691506800
86,novaya igirma,57.1334,103.9112,16.07,97,{'all': 68},0.5,RU,1691506800
87,tuburan,6.6439,122.2736,27.78,78,{'all': 13},2.09,PH,1691506800
88,kapa'a,22.0752,-159.319,25.43,82,{'all': 100},10.13,US,1691506800
89,wailua homesteads,22.0669,-159.378,24.62,82,{'all': 100},9.13,US,1691506800
90,mpika,-11.8343,31.4529,22.29,30,{'all': 15},3.3,ZM,1691506800
91,nagqu,31.5,92.0,8.34,78,{'all': 100},1.23,CN,1691506800
92,cockburn town,21.4612,-71.1419,28.73,86,{'all': 0},7.52,TC,1691506800
93,albany,42.6001,-73.9662,22.11,85,{'all': 99},1.51,US,1691506800
94,longyearbyen,78.2186,15.6401,10.91,54,{'all': 20},1.59,SJ,1691506800
95,jamestown,42.097,-79.2353,18.82,86,{'all': 100},7.3,US,1691506800
96,kapuskasing,49.4169,-82.4331,19.12,77,{'all': 75},1.88,CA,1691506800
97,angaur state,6.906,134.13,27.92,81,{'all': 100},8.25,PW,1691506800
98,bodaybo,57.8506,114.1933,20.04,59,{'all': 39},0.9,RU,1691506800
99,kirensk,57.7853,108.1119,20.08,65,{'all': 79},0.89,RU,1691506800
100,taitung city,22.7583,121.1444,27.74,94,{'all': 40},1.7,TW,1691506800
101,talnakh,69.4865,88.3972,21.23,58,{'all': 87},0.7,RU,1691506800
102,banda aceh,5.5577,95.3222,26.98,75,{'all': 94},5.05,ID,1691506800
103,daru,-9.0763,143.2092,24.0,79,{'all': 100},7.21,PG,1691506800
104,st. john's,47.5649,-52.7093,13.63,91,{'all': 100},6.52,CA,1691506800
105,ashkelon,31.6693,34.5715,32.51,58,{'all': 0},5.08,IL,1691506800
106,moncton,46.1159,-64.8019,21.3,80,{'all': 75},3.95,CA,1691506800
107,port mathurin,-19.6833,63.4167,22.86,69,{'all': 31},9.85,MU,1691506800
108,margate,51.3813,1.3862,16.34,87,{'all': 100},9.17,GB,1691506800
109,road town,18.4167,-64.6167,30.05,80,{'all': 63},7.26,VG,1691506800
110,winnemucca,40.973,-117.7357,19.18,76,{'all': 0},1.2,US,1691506800
111,terrace,54.5163,-128.6035,14.95,94,{'all': 100},0.03,CA,1691506800
112,labytnangi,66.6572,66.4183,16.84,64,{'all': 100},3.45,RU,1691506800
113,georgetown,5.4112,100.3354,27.19,93,{'all': 20},1.22,MY,1691506800
114,reus,41.1561,1.1069,27.7,62,{'all': 20},5.48,ES,1691506800
115,kerikeri,-35.2268,173.9474,6.7,89,{'all': 64},2.29,NZ,1691506800
116,san clemente del tuyu,-36.3569,-56.7235,9.27,69,{'all': 88},4.87,AR,1691506800
117,vorkuta,67.5,64.0,12.75,73,{'all': 100},5.07,RU,1691506800
118,sitka,57.0531,-135.33,15.94,77,{'all': 100},1.17,US,1691506800
119,ust-nera,64.5667,143.2,11.3,59,{'all': 65},1.56,RU,1691506800
120,puerto ayora,-0.7393,-90.3518,24.53,89,{'all': 100},4.85,EC,1691506800
121,okhotsk,59.3833,143.3,11.74,71,{'all': 35},2.97,RU,1691506800
122,lau,9.2167,11.2833,30.55,59,{'all': 97},2.16,NG,1691506800
123,kratie,12.4881,106.0188,27.68,73,{'all': 99},1.39,KH,1691506800
124,minas de marcona,-15.2119,-75.1103,16.66,63,{'all': 13},4.62,PE,1691506800
125,hawaiian paradise park,19.5933,-154.9731,23.43,86,{'all': 100},4.17,US,1691506800
126,sidon,33.5631,35.3689,27.95,67,{'all': 7},2.86,LB,1691506800
127,kargat,55.1956,80.2811,19.99,54,{'all': 79},2.24,RU,1691506800
128,salekhard,66.53,66.6019,17.23,63,{'all': 100},2.89,RU,1691506800
129,badger,64.8,-147.5333,13.22,93,{'all': 75},1.63,US,1691506800
130,nuuk,64.1835,-51.7216,8.34,81,{'all': 0},2.8,GL,1691506800
131,gidole,5.65,37.3667,19.61,48,{'all': 93},1.42,ET,1691506800
132,juankoski,63.0667,28.35,22.7,87,{'all': 100},3.45,FI,1691506800
133,karukh,34.4811,62.5863,26.87,21,{'all': 0},11.94,AF,1691506800
134,wotje,9.4543,170.2367,28.01,76,{'all': 68},6.66,MH,1691506800
135,uray,60.1247,64.7758,22.22,56,{'all': 82},3.18,RU,1691506800
136,ponta delgada,37.7333,-25.6667,24.9,73,{'all': 20},1.89,PT,1691506800
137,xique xique,-10.8217,-42.7311,30.18,43,{'all': 1},2.03,BR,1691506800
138,alice springs,-23.7,133.8833,14.6,62,{'all': 2},2.76,AU,1691506800
139,kodiak,57.79,-152.4072,11.73,94,{'all': 100},1.63,US,1691506800
140,diamantino,-14.4086,-56.4461,37.01,21,{'all': 0},2.3,BR,1691506800
141,sasovo,54.3537,41.9199,26.73,58,{'all': 25},4.06,RU,1691506800
142,paphos,34.7667,32.4167,30.88,55,{'all': 20},5.4,CY,1691506800
143,howrah,22.5892,88.3103,29.0,84,{'all': 75},2.6,IN,1691506800
144,mercedes,-34.6515,-59.4307,11.26,53,{'all': 96},5.37,AR,1691506800
145,kabare,-2.4683,28.8242,20.94,61,{'all': 96},2.09,CD,1691506800
146,axim,4.8699,-2.2405,25.84,79,{'all': 66},6.14,GH,1691506800
147,matoury,4.8483,-52.3317,31.55,62,{'all': 100},3.6,GF,1691506800
148,san sebastian de la gomera,28.0916,-17.1133,28.2,54,{'all': 20},2.74,ES,1691506800
149,nueva esperanza,15.2667,-87.6,26.71,88,{'all': 100},0.4,HN,1691506800
150,ilulissat,69.2167,-51.1,9.01,53,{'all': 40},1.14,GL,1691506800
151,corsicana,32.0954,-96.4689,33.16,76,{'all': 0},6.6,US,1691506800
152,keflavik,64.0049,-22.5624,12.24,82,{'all': 75},4.44,IS,1691506800
153,saint-georges,12.0564,-61.7485,30.82,74,{'all': 20},4.17,GD,1691506800
154,gopalpur,19.2667,84.9167,30.44,65,{'all': 100},2.62,IN,1691506800
155,shache,38.4167,77.2406,30.05,17,{'all': 0},2.98,CN,1691506800
156,fort stockton,30.894,-102.8793,30.51,50,{'all': 0},4.67,US,1691506800
157,arraial do cabo,-22.9661,-42.0278,22.92,88,{'all': 75},7.78,BR,1691506800
158,iskateley,67.6803,53.1512,16.98,52,{'all': 62},3.46,RU,1691506800
159,san patricio,28.017,-97.5169,32.42,53,{'all': 0},6.57,US,1691506800
160,wagar,16.1525,36.2032,33.93,43,{'all': 75},3.69,SD,1691506800
161,adilabad,19.6667,78.5333,25.96,80,{'all': 100},3.08,IN,1691506800
162,antofagasta,-23.65,-70.4,19.9,61,{'all': 10},2.92,CL,1691506800
163,flying fish cove,-10.4217,105.6791,25.02,83,{'all': 100},7.66,CX,1691506800
164,sisimiut,66.9395,-53.6735,9.05,60,{'all': 35},2.19,GL,1691506800
165,kaga bandoro,6.9896,19.1874,25.37,91,{'all': 96},0.9,CF,1691506800
166,avarua,-21.2078,-159.775,21.56,82,{'all': 20},5.11,CK,1691506800
167,charters towers,-20.1,146.2667,14.08,86,{'all': 95},3.21,AU,1691506800
168,puerto gaitan,4.3133,-72.0816,28.96,71,{'all': 49},3.41,CO,1691506800
169,ad dilam,23.9915,47.1627,46.23,5,{'all': 1},4.28,SA,1691506800
170,kingston,17.997,-76.7936,34.28,67,{'all': 20},1.99,JM,1691506800
171,guanica,17.9716,-66.908,31.02,63,{'all': 11},4.4,PR,1691506800
172,manakara,-22.1333,48.0167,20.85,84,{'all': 94},1.91,MG,1691506800
173,yamada,39.4667,141.95,24.77,96,{'all': 90},3.96,JP,1691506800
174,alesund,62.4723,6.1549,13.89,99,{'all': 75},5.05,NO,1691506800
175,harstad,68.799,16.5293,24.11,78,{'all': 8},4.28,NO,1691506800
176,kenai,60.5544,-151.2583,11.89,95,{'all': 100},2.44,US,1691506800
177,urzhar,47.093,81.6294,20.88,71,{'all': 96},2.74,KZ,1691506800
178,aras-asan,8.8908,126.3033,26.93,84,{'all': 100},1.62,PH,1691506800
179,lata,40.1629,-8.3327,38.46,20,{'all': 0},5.4,PT,1691506800
180,dul'durga,50.6761,113.5931,16.16,71,{'all': 71},0.65,RU,1691506800
181,carnarvon,-24.8667,113.6333,19.14,86,{'all': 19},7.23,AU,1691506800
182,sittwe,20.15,92.9,25.77,88,{'all': 100},3.67,MM,1691506800
183,chu,43.5983,73.7614,24.33,47,{'all': 64},0.97,KZ,1691506800
184,saipan,15.1355,145.701,28.49,100,{'all': 75},2.12,MP,1691506800
185,mount gambier,-37.8333,140.7667,6.17,82,{'all': 20},3.59,AU,1691506800
186,san antonio de pale,-1.4014,5.6325,23.43,76,{'all': 25},5.34,GQ,1691506800
187,higuera de zaragoza,25.95,-109.2833,32.77,60,{'all': 1},4.31,MX,1691506800
188,asekeyevo,53.5742,52.7972,25.7,38,{'all': 9},6.8,RU,1691506800
189,deqen,29.9618,90.7188,14.29,75,{'all': 100},1.94,CN,1691506800
190,domna,51.8971,113.1573,15.87,93,{'all': 26},0.66,RU,1691506800
191,al kharijah,25.4514,30.5464,43.85,8,{'all': 2},4.33,EG,1691506800
192,dongkan,33.9997,119.8308,22.38,94,{'all': 40},2.04,CN,1691506800
193,qinzhou,21.95,108.6167,27.62,83,{'all': 35},4.52,CN,1691506800
194,guerrero negro,27.9769,-114.0611,24.89,77,{'all': 55},2.9,MX,1691506800
195,hamilton,39.1834,-84.5333,23.53,78,{'all': 0},2.48,US,1691506800
196,morehead city,34.7229,-76.726,28.92,76,{'all': 0},6.35,US,1691506800
197,namsos,64.4662,11.4957,24.95,69,{'all': 74},5.67,NO,1691506800
198,sao joao da barra,-21.6403,-41.0511,26.36,62,{'all': 0},9.64,BR,1691506800
199,xiva,41.3783,60.3639,33.46,23,{'all': 4},5.6,UZ,1691506800
200,mamuju,-2.6748,118.8885,25.54,85,{'all': 6},1.27,ID,1691506800
201,la sarre,48.8002,-79.1996,18.51,60,{'all': 96},3.61,CA,1691506800
202,puerto aysen,-45.4,-72.7,8.25,100,{'all': 75},2.36,CL,1691506800
203,anadyr,64.75,177.4833,10.0,81,{'all': 75},7.35,RU,1691506800
204,gulnar,36.3415,33.3992,28.73,37,{'all': 0},2.7,TR,1691506800
205,haiku-pauwela,20.9219,-156.3051,25.02,64,{'all': 0},11.11,US,1691506800
206,uacu cungo,-11.3634,15.1208,30.26,14,{'all': 0},1.2,AO,1691506800
207,alofi,-19.0595,-169.9187,24.06,100,{'all': 54},6.16,NU,1691506800
208,bhola,22.6833,90.65,26.73,85,{'all': 100},3.6,BD,1691506800
209,vorgashor,67.5833,63.95,12.57,73,{'all': 100},4.84,RU,1691506800
210,kourou,5.1552,-52.6478,31.12,58,{'all': 20},4.02,GF,1691506800
211,nelson bay,-32.7167,152.15,13.63,96,{'all': 2},0.98,AU,1691506800
212,port alfred,-33.5906,26.891,18.43,76,{'all': 99},9.1,ZA,1691506800
213,morgan city,29.6994,-91.2068,33.57,84,{'all': 0},3.99,US,1691506800
214,blackburn,53.75,-2.4833,17.22,65,{'all': 100},5.52,GB,1691506800
215,cururupu,-1.8283,-44.8683,28.73,74,{'all': 28},4.17,BR,1691506800
216,sotouboua,8.5667,0.9833,26.84,80,{'all': 87},3.71,TG,1691506800
217,dunedin,-45.8742,170.5036,6.0,70,{'all': 97},5.75,NZ,1691506800
218,saint-philippe,-21.3585,55.7679,22.77,76,{'all': 43},4.88,RE,1691506800
219,taytay,14.5678,121.1394,28.74,88,{'all': 40},3.9,PH,1691506800
220,nieuw amsterdam,5.8833,-55.0833,31.29,75,{'all': 55},1.79,SR,1691506800
221,namibe,-15.1961,12.1522,20.32,75,{'all': 8},3.99,AO,1691506800
222,tura,25.5198,90.2201,23.81,98,{'all': 100},2.61,IN,1691506800
223,porto novo,6.4965,2.6036,27.9,69,{'all': 51},6.31,BJ,1691506800
224,weno,7.4515,151.8468,27.97,89,{'all': 100},5.54,FM,1691506800
225,new norfolk,-42.7826,147.0587,6.51,95,{'all': 72},1.3,AU,1691506800
226,kaliua,-5.0606,31.7936,30.35,21,{'all': 53},2.98,TZ,1691506800
227,san jose,37.3394,-121.895,16.79,82,{'all': 20},2.24,US,1691506800
228,inderbor,48.55,51.7833,33.81,22,{'all': 0},4.6,KZ,1691506800
229,egilsstadir,65.2653,-14.3948,14.95,38,{'all': 0},5.81,IS,1691506800
230,pula,44.8683,13.8481,26.31,41,{'all': 20},3.53,HR,1691506800
231,vilyuchinsk,52.9306,158.4028,12.18,67,{'all': 100},4.09,RU,1691506800
232,vadso,70.0744,29.7487,23.09,64,{'all': 0},2.01,NO,1691506800
233,macgregor,49.9661,-98.7794,18.01,96,{'all': 100},3.96,CA,1691506800
234,touros,-5.1989,-35.4608,29.27,59,{'all': 54},6.77,BR,1691506800
235,khandyga,62.6667,135.6,11.05,56,{'all': 63},0.72,RU,1691506800
236,idri,27.5,13.2667,39.24,14,{'all': 0},5.63,LY,1691506800
237,dinghaicun,26.2847,119.7936,27.51,91,{'all': 97},2.38,CN,1691506800
238,temiskaming shores,47.4938,-79.7153,20.59,55,{'all': 10},4.56,CA,1691506800
239,ciudad lazaro cardenas,17.9583,-102.2,29.85,72,{'all': 39},1.87,MX,1691506800
240,bilibino,68.0546,166.4372,5.16,52,{'all': 100},2.06,RU,1691506800
241,tual,-5.6667,132.75,25.93,76,{'all': 46},9.19,ID,1691506800
242,kodinsk,58.6881,99.1844,15.95,72,{'all': 3},0.93,RU,1691506800
243,port lincoln,-34.7333,135.8667,12.15,47,{'all': 5},5.26,AU,1691506800
244,east london,-33.0153,27.9116,19.52,68,{'all': 20},9.27,ZA,1691506800
245,bardai,11.65,7.2333,27.16,62,{'all': 100},5.04,NG,1691506800
246,pisco,-13.7,-76.2167,19.76,77,{'all': 100},2.24,PE,1691506800
247,kone,-21.0595,164.8658,15.91,85,{'all': 10},2.47,NC,1691506800
248,mili,6.0815,171.735,27.62,79,{'all': 100},4.87,MH,1691506800
249,brokopondo,4.75,-55.1667,29.64,64,{'all': 66},0.98,SR,1691506800
250,ternate,0.8,127.4,26.97,80,{'all': 35},4.47,ID,1691506800
251,segezha,63.7415,34.3222,22.02,66,{'all': 32},4.49,RU,1691506800
252,mejit,10.2753,170.8646,28.05,77,{'all': 78},7.18,MH,1691506800
253,shingu,33.7333,135.9833,26.64,94,{'all': 59},3.89,JP,1691506800
254,pacific grove,36.6177,-121.9166,14.74,94,{'all': 100},2.04,US,1691506800
255,ebon,4.582,168.6964,27.1,80,{'all': 100},1.96,MH,1691506800
256,kavieng,-2.5744,150.7967,26.83,76,{'all': 99},0.64,PG,1691506800
257,tsiombe,-25.3,45.4833,21.04,77,{'all': 6},4.08,MG,1691506800
258,zaragoza,41.6561,-0.8773,33.79,28,{'all': 0},1.18,ES,1691506800
259,aasiaat,68.7098,-52.8699,3.75,74,{'all': 24},2.45,GL,1691506800
260,la passe,45.5549,-0.8967,25.62,39,{'all': 11},4.71,FR,1691506800
261,hobyo,5.3505,48.5268,25.26,79,{'all': 55},11.87,SO,1691506800
262,talcahuano,-36.7167,-73.1167,12.39,100,{'all': 40},1.04,CL,1691506800
263,constantia,44.1833,28.65,22.64,56,{'all': 44},6.2,RO,1691506800
264,akjoujt,19.6969,-14.4164,38.74,17,{'all': 0},3.99,MR,1691506800
265,lincheng,19.9078,109.6858,28.14,73,{'all': 99},3.37,CN,1691506800
266,tazovsky,67.4667,78.7,16.43,68,{'all': 75},3.46,RU,1691506800
267,pont-eveque,45.5269,4.9143,27.62,24,{'all': 35},2.85,FR,1691506800
268,lebu,-37.6167,-73.65,12.84,54,{'all': 90},2.51,CL,1691506800
269,tralee,52.2704,-9.7026,19.14,77,{'all': 100},1.01,IE,1691506800
270,klyuchi,52.2667,79.1667,21.45,42,{'all': 34},1.47,RU,1691506800
271,cambria,35.5641,-121.0808,16.04,99,{'all': 50},1.74,US,1691506800
272,awjilah,29.1081,21.2869,35.82,21,{'all': 0},6.36,LY,1691506800
273,plastun,44.7561,136.2939,16.91,83,{'all': 100},1.57,RU,1691506800
274,hua hin,12.5707,99.9588,28.0,71,{'all': 100},4.37,TH,1691506800
275,college,64.8569,-147.8028,13.49,93,{'all': 75},1.48,US,1691506800
276,keetmanshoop,-26.5833,18.1333,25.58,11,{'all': 0},1.44,NA,1691506800
277,az zawr,29.4425,48.2747,38.54,37,{'all': 0},3.18,KW,1691506800
278,argo,37.6333,22.7333,32.66,37,{'all': 4},3.36,GR,1691506800
279,ranot,7.7777,100.3213,28.02,75,{'all': 38},5.48,TH,1691506800
280,puerto deseado,-47.7503,-65.8938,10.66,50,{'all': 72},11.74,AR,1691506800
281,chibougamau,49.9168,-74.3659,14.79,100,{'all': 75},4.92,CA,1691506800
282,zaraza,9.3503,-65.3245,31.5,61,{'all': 9},2.12,VE,1691506800
283,luderitz,-26.6481,15.1594,21.36,50,{'all': 0},11.05,NA,1691506800
284,kailua-kona,19.6406,-155.9956,25.15,83,{'all': 0},1.72,US,1691506800
285,sungai penuh,-2.0833,101.3833,18.6,98,{'all': 88},0.92,ID,1691506800
286,gadzhiyevo,69.2551,33.3362,24.05,64,{'all': 0},5.32,RU,1691506800
287,tangstedt,53.7488,10.0645,16.27,53,{'all': 20},8.37,DE,1691506800
288,xai-xai,-25.0519,33.6442,20.11,67,{'all': 0},3.29,MZ,1691506800
289,lima,-12.0432,-77.0282,20.5,79,{'all': 100},3.58,PE,1691506800
290,hithadhoo,-0.6,73.0833,28.0,71,{'all': 80},2.75,MV,1691506800
291,mirnyy,62.5353,113.9611,18.77,61,{'all': 99},3.53,RU,1691506800
292,kuching,1.55,110.3333,28.12,83,{'all': 20},0.89,MY,1691506800
293,newman,37.3138,-121.0208,20.85,80,{'all': 0},1.73,US,1691506800
294,utrik,11.2278,169.8474,27.78,79,{'all': 89},5.88,MH,1691506800
295,rufino,-34.2683,-62.7126,10.88,46,{'all': 100},5.9,AR,1691506800
296,myanaung,18.2833,95.3167,24.4,90,{'all': 100},2.35,MM,1691506800
297,ludvika,60.1496,15.1878,15.79,94,{'all': 100},5.43,SE,1691506800
298,labrador city,52.9463,-66.9114,17.22,67,{'all': 75},3.76,CA,1691506800
299,saint-joseph,-21.3667,55.6167,21.77,76,{'all': 36},3.78,RE,1691506800
300,djambala,-2.5447,14.7533,30.32,34,{'all': 79},0.34,CG,1691506800
301,nuku'alofa,-21.1333,-175.2,23.77,100,{'all': 41},2.93,TO,1691506800
302,new plymouth,-39.0667,174.0833,7.36,64,{'all': 14},4.69,NZ,1691506800
303,maridi,4.9158,29.4742,21.16,95,{'all': 100},1.78,SS,1691506800
304,ben mehidi,36.7697,7.9064,29.0,57,{'all': 0},4.62,DZ,1691506800
305,brookings,44.3114,-96.7984,21.03,94,{'all': 20},2.01,US,1691506800
306,wewak,-3.5534,143.6268,26.74,82,{'all': 62},3.15,PG,1691506800
307,bam,29.106,58.357,36.04,15,{'all': 18},5.98,IR,1691506800
308,broome,42.2506,-75.833,19.69,89,{'all': 100},4.01,US,1691506800
309,port saint john's,-31.6229,29.5448,19.46,77,{'all': 33},8.12,ZA,1691506800
310,christchurch,-43.5333,172.6333,2.67,70,{'all': 12},1.88,NZ,1691506800
311,puerto armuelles,8.2833,-82.8667,27.27,91,{'all': 100},0.5,PA,1691506800
312,cestos city,5.46,-9.5828,26.52,81,{'all': 42},5.5,LR,1691506800
313,hasaki,35.7333,140.8333,27.24,93,{'all': 71},5.39,JP,1691506800
314,jutai,-5.1833,-68.9,33.66,50,{'all': 71},0.74,BR,1691506800
315,polyarnyy,69.1989,33.4478,23.53,65,{'all': 0},5.5,RU,1691506800
316,kidal,18.4411,1.4078,39.59,20,{'all': 20},4.05,ML,1691506800
317,yurgamysh,55.3714,64.4656,22.5,49,{'all': 99},2.2,RU,1691506800
318,arar,30.9753,41.0381,42.01,6,{'all': 0},4.74,SA,1691506800
319,kihei,20.785,-156.4656,25.81,74,{'all': 0},6.91,US,1691506800
320,fisterra,42.9049,-9.2629,28.19,67,{'all': 0},1.83,ES,1691506800
321,wang nam yen,13.5033,102.1812,25.45,83,{'all': 100},4.26,TH,1691506800
322,vernon,50.2581,-119.2691,20.9,68,{'all': 100},1.24,CA,1691506800
323,udachny,66.4167,112.4,21.92,43,{'all': 41},2.9,RU,1691506800
324,ziebice,50.6012,17.0406,19.48,50,{'all': 84},5.54,PL,1691506800
325,qui nhon,13.7667,109.2333,28.83,69,{'all': 40},2.71,VN,1691506800
326,kruisfontein,-34.0033,24.7314,17.16,85,{'all': 93},6.98,ZA,1691506800
327,ujae,8.9322,165.7642,27.91,81,{'all': 100},6.27,MH,1691506800
328,la'ie,21.6477,-157.9253,25.65,76,{'all': 9},11.81,US,1691506800
329,dhidhdhoo,6.8833,73.1,28.22,76,{'all': 100},6.48,MV,1691506800
330,san julian,21.0167,-102.1667,18.99,63,{'all': 0},0.94,MX,1691506800
331,kamaishi,39.2667,141.8833,25.05,96,{'all': 98},3.99,JP,1691506800
332,camiri,-20.05,-63.5167,24.76,55,{'all': 0},1.9,BO,1691506800
333,pacasmayo,-7.4006,-79.5714,22.29,75,{'all': 82},4.94,PE,1691506800
334,capelinha,-17.6914,-42.5158,28.66,22,{'all': 0},3.59,BR,1691506800
335,shanwei,22.782,115.3475,29.4,78,{'all': 98},6.03,CN,1691506800
336,thames,-37.1333,175.5333,6.35,86,{'all': 45},2.02,NZ,1691506800
337,walvis bay,-22.9575,14.5053,26.53,29,{'all': 0},8.35,NA,1691506800
338,ratangarh,28.0833,74.6,33.65,44,{'all': 89},7.11,IN,1691506800
339,klaksvik,62.2266,-6.589,8.76,78,{'all': 100},12.28,FO,1691506800
340,guia lopes da laguna,-21.4578,-56.1142,33.62,27,{'all': 0},2.46,BR,1691506800
341,oriximina,-1.7656,-55.8661,35.21,39,{'all': 70},3.15,BR,1691506800
342,madingou,-4.1536,13.55,33.77,31,{'all': 1},2.59,CG,1691506800
343,verkhovazh'ye,60.7472,42.0465,23.64,59,{'all': 0},3.09,RU,1691506800
344,akrehamn,59.2667,5.1833,12.37,87,{'all': 75},17.64,NO,1691506800
345,ulsteinvik,62.3432,5.8487,13.49,96,{'all': 100},3.72,NO,1691506800
346,sirte,31.2089,16.5887,27.49,60,{'all': 0},7.23,LY,1691506800
347,pavlovsk,50.4578,40.1081,29.2,41,{'all': 2},4.13,RU,1691506800
348,macusani,-14.0833,-70.4333,7.15,52,{'all': 14},1.72,PE,1691506800
349,dudinka,69.4058,86.1778,21.46,58,{'all': 53},2.35,RU,1691506800
350,zaysan,47.4667,84.8667,20.82,56,{'all': 100},2.5,KZ,1691506800
351,kievka,50.2619,71.5514,23.89,45,{'all': 81},4.36,KZ,1691506800
352,afaahiti,-17.75,-149.2833,25.11,74,{'all': 34},5.23,PF,1691506800
353,tanumah,27.1,44.1333,39.64,6,{'all': 0},6.52,SA,1691506800
354,lodhran,29.5405,71.6336,37.38,31,{'all': 50},2.86,PK,1691506800
355,ocean city,39.2776,-74.5746,25.03,80,{'all': 9},7.23,US,1691506800
356,happy valley-goose bay,53.3168,-60.3315,17.57,77,{'all': 100},1.1,CA,1691506800
357,gizo,-8.103,156.8419,25.99,84,{'all': 100},6.94,SB,1691506800
358,koh kong,11.6175,102.9806,26.62,84,{'all': 86},2.2,KH,1691506800
359,mabaruma,8.2,-59.7833,34.17,48,{'all': 20},1.8,GY,1691506800
360,bayanaul,50.7889,75.6956,21.79,34,{'all': 63},3.79,KZ,1691506800
361,peace river,56.2501,-117.286,16.21,96,{'all': 100},2.82,CA,1691506800
362,macau,22.2006,113.5461,29.97,79,{'all': 20},5.24,MO,1691506800
363,balikpapan,-1.2675,116.8289,27.55,78,{'all': 20},4.14,ID,1691506800
364,keningau,5.3378,116.1602,22.57,97,{'all': 18},0.54,MY,1691506800
365,beyneu,45.3167,55.2,34.42,21,{'all': 0},3.64,KZ,1691506800
366,piton saint-leu,-21.2196,55.3151,20.87,64,{'all': 0},2.88,RE,1691506800
367,codrington,-38.2667,141.9667,6.19,84,{'all': 83},4.67,AU,1691506800
368,midvagur,62.0511,-7.1939,8.93,81,{'all': 100},9.16,FO,1691506800
369,kitimat,54.0524,-128.6534,15.34,62,{'all': 100},0.48,CA,1691506800
370,miri,4.4148,114.0089,29.08,79,{'all': 20},1.83,MY,1691506800
371,kolonia town,6.964,158.206,27.99,94,{'all': 100},6.06,FM,1691506800
372,poronaysk,49.2167,143.1167,12.58,91,{'all': 83},0.7,RU,1691506800
373,konsoy,40.4915,69.7025,31.98,29,{'all': 72},3.81,TJ,1691506800
374,puerto colombia,10.9878,-74.9547,30.95,70,{'all': 79},2.93,CO,1691506800
375,da nang,16.0678,108.2208,30.99,74,{'all': 20},3.51,VN,1691506800
376,puerto santa,-8.9906,-78.6456,20.95,76,{'all': 91},3.66,PE,1691506800
377,santa terezinha,-29.9002,-50.0904,17.1,58,{'all': 91},6.52,BR,1691506800
378,inari,68.906,27.0288,28.11,59,{'all': 1},4.44,FI,1691506800
379,carnot,4.9409,15.8665,21.42,98,{'all': 100},0.91,CF,1691506800
380,port augusta,-32.5,137.7667,9.1,46,{'all': 0},2.28,AU,1691506800
381,tshabong,-26.05,22.45,24.86,10,{'all': 1},2.5,BW,1691506800
382,ilha de mocambique,-15.0342,40.7358,24.35,68,{'all': 1},9.0,MZ,1691506800
383,uyar,55.81,94.3153,16.72,73,{'all': 26},2.18,RU,1691506800
384,korhogo,9.45,-5.6333,28.45,68,{'all': 91},2.02,CI,1691506800
385,myski,53.709,87.8014,16.28,64,{'all': 21},1.0,RU,1691506800
386,pariaman,-0.619,100.12,25.49,86,{'all': 100},0.89,ID,1691506800
387,aykhal,66.0,111.5,16.12,59,{'all': 59},2.89,RU,1691506800
388,yunyang,33.4474,112.7142,24.69,85,{'all': 40},1.51,CN,1691506800
389,nikolayevsk-on-amure,53.1406,140.73,13.36,92,{'all': 98},1.46,RU,1691506800
390,lompoc,34.6391,-120.4579,17.22,87,{'all': 100},1.49,US,1691506800
391,wotho,10.1657,166.0102,28.36,78,{'all': 81},6.16,MH,1691506800
392,markala,13.7021,-6.0659,37.33,31,{'all': 65},2.55,ML,1691506800
393,el porvenir,13.7617,-87.3458,29.13,52,{'all': 89},1.72,HN,1691506800
394,gifford,27.6753,-80.4092,31.41,80,{'all': 0},4.27,US,1691506800
395,urengoy,65.9667,78.3667,18.04,58,{'all': 29},2.64,RU,1691506800
396,castillos,-34.1667,-53.8333,13.75,59,{'all': 3},4.1,UY,1691506800
397,colac,-38.3333,143.5833,8.21,92,{'all': 9},1.32,AU,1691506800
398,magadan,59.5667,150.8,8.53,66,{'all': 23},3.52,RU,1691506800
399,westerland,54.9079,8.3033,16.89,63,{'all': 40},15.91,DE,1691506800
400,ghazni,33.5536,68.4269,27.12,17,{'all': 0},1.38,AF,1691506800
401,mongu,-15.2484,23.1274,30.08,15,{'all': 4},2.89,ZM,1691506800
402,ardestan,33.3761,52.3694,33.72,18,{'all': 74},5.7,IR,1691506800
403,acapulco de juarez,16.8634,-99.8901,29.62,73,{'all': 40},1.05,MX,1691506800
404,novodvinsk,64.4165,40.8122,23.76,48,{'all': 0},3.11,RU,1691506800
405,pont rouge,48.8833,-72.0825,16.06,96,{'all': 100},5.83,CA,1691506800
406,sola,-13.8833,167.55,24.82,83,{'all': 100},8.48,VU,1691506800
407,khorixas,-20.3667,14.9667,29.14,13,{'all': 1},3.1,NA,1691506800
408,kununurra,-15.7667,128.7333,22.39,68,{'all': 30},2.95,AU,1691506800
409,usinsk,65.9939,57.5281,18.98,59,{'all': 76},4.15,RU,1691506800
410,taichung,24.1469,120.6839,28.98,81,{'all': 75},2.64,TW,1691506800
411,huarmey,-10.0681,-78.1522,21.86,69,{'all': 15},3.79,PE,1691506800
412,san luis de la loma,17.2706,-100.8939,30.04,66,{'all': 0},1.76,MX,1691506800
413,coquimbo,-29.9533,-71.3436,17.25,67,{'all': 0},1.97,CL,1691506800
414,mugia,43.1041,-9.2179,24.95,70,{'all': 0},4.73,ES,1691506800
415,nadi,-17.8,177.4167,23.0,83,{'all': 75},2.9,FJ,1691506800
416,baturaja,-4.1333,104.1667,23.49,96,{'all': 38},0.93,ID,1691506800
417,miquelon,47.0975,-56.3814,17.0,75,{'all': 96},6.14,PM,1691506800
418,hinton,53.4001,-117.5857,14.89,90,{'all': 100},0.66,CA,1691506800
419,saint-francois,46.4154,3.9054,25.69,33,{'all': 0},2.23,FR,1691506800
420,guozhen,34.3659,107.359,26.71,82,{'all': 58},0.96,CN,1691506800
421,itacoatiara,-3.1431,-58.4442,36.34,31,{'all': 12},2.58,BR,1691506800
422,aleg,17.0481,-13.9209,35.6,23,{'all': 5},3.99,MR,1691506800
423,coromandel,-18.4733,-47.2003,29.13,18,{'all': 0},3.02,BR,1691506800
424,alaverdi,41.0977,44.6732,30.01,58,{'all': 11},1.76,AM,1691506800
425,tocopilla,-22.092,-70.1979,20.66,64,{'all': 4},4.52,CL,1691506800
426,iquique,-20.2208,-70.1431,20.16,65,{'all': 0},3.64,CL,1691506800
427,puerto palomas,31.7667,-107.6167,27.88,41,{'all': 95},3.29,MX,1691506800
428,valley center,33.2184,-117.0342,24.86,51,{'all': 0},1.55,US,1691506800
429,mahalapye,-23.1041,26.8142,23.57,13,{'all': 0},3.86,BW,1691506800
430,howard springs,-12.497,131.047,24.6,81,{'all': 27},2.19,AU,1691506800
431,simplicio mendes,-7.8539,-41.9103,34.15,28,{'all': 8},3.88,BR,1691506800
432,mount isa,-20.7333,139.5,18.42,66,{'all': 6},4.48,AU,1691506800
433,pindiga,9.9833,10.9333,28.14,61,{'all': 54},4.99,NG,1691506800
434,smithers,54.7804,-127.1743,13.64,94,{'all': 100},0.65,CA,1691506800
435,dakhla,23.6848,-15.958,25.01,69,{'all': 4},6.16,EH,1691506800
436,arroyo,41.6096,-4.7969,38.45,20,{'all': 0},4.66,ES,1691506800
437,tadine,-21.55,167.8833,18.53,72,{'all': 83},6.78,NC,1691506800
438,kasempa,-13.4584,25.8338,26.95,21,{'all': 7},3.43,ZM,1691506800
439,ta`u,-14.2336,-169.5144,27.12,72,{'all': 91},5.25,AS,1691506800
440,ercis,39.0287,43.3586,30.26,23,{'all': 14},1.58,TR,1691506800
441,verkhneural'sk,53.8769,59.2106,16.37,91,{'all': 97},3.18,RU,1691506800
442,dzhangala,49.2167,50.3333,33.69,22,{'all': 0},4.62,KZ,1691506800
443,chulucanas,-5.0925,-80.1625,26.6,58,{'all': 67},1.68,PE,1691506800
444,amga,60.8953,131.9608,10.68,87,{'all': 15},1.18,RU,1691506800
445,farasan,16.7022,42.1183,31.34,71,{'all': 81},6.11,SA,1691506800
446,port blair,11.6667,92.75,29.02,79,{'all': 40},6.78,IN,1691506800
447,agadez,19.75,10.25,39.28,21,{'all': 45},5.19,NE,1691506800
448,marka,1.7159,44.7717,24.98,81,{'all': 13},8.19,SO,1691506800
449,barakani,-12.1356,44.4317,24.85,72,{'all': 8},5.03,KM,1691506800
450,arpacay,40.8487,43.3291,29.58,43,{'all': 10},3.5,TR,1691506800
451,altai,46.3722,96.2583,21.09,29,{'all': 100},2.11,MN,1691506800
452,galle,6.0367,80.217,26.18,87,{'all': 90},4.07,LK,1691506800
453,cedar city,37.6775,-113.0619,23.02,14,{'all': 0},4.27,US,1691506800
454,dzuunharaa,48.8523,106.4579,19.23,76,{'all': 62},1.97,MN,1691506800
455,claveria,18.6074,121.0832,27.08,83,{'all': 100},4.07,PH,1691506800
456,west plains,36.7281,-91.8524,26.35,94,{'all': 20},2.61,US,1691506800
457,hadibu,12.65,54.0333,26.57,73,{'all': 39},8.11,YE,1691506800
458,tagta,41.6504,59.9164,33.97,27,{'all': 0},5.7,TM,1691506800
459,quibala,-10.7337,14.98,29.58,19,{'all': 0},3.42,AO,1691506800
460,mafeteng,-29.823,27.2374,16.76,23,{'all': 0},2.34,LS,1691506800
461,lorengau,-2.0226,147.2712,27.18,80,{'all': 45},4.83,PG,1691506800
462,mar del plata,-38.0023,-57.5575,7.29,74,{'all': 75},6.15,AR,1691506800
463,ulladulla,-35.35,150.4667,9.09,89,{'all': 7},1.96,AU,1691506800
464,horezu,45.15,24.0167,21.62,46,{'all': 71},0.94,RO,1691506800
465,heunghae,36.1125,129.3522,24.37,92,{'all': 80},6.67,KR,1691506800
466,benson,51.6207,-1.1098,17.26,95,{'all': 100},5.39,GB,1691506800
467,nova vicosa,-17.8919,-39.3719,26.97,63,{'all': 28},3.78,BR,1691506800
468,keelung,25.1283,121.7419,30.62,84,{'all': 81},1.57,TW,1691506800
469,seaside,36.6111,-121.8516,16.05,94,{'all': 100},1.67,US,1691506800
470,huron,41.1501,-82.5499,21.23,87,{'all': 93},4.41,US,1691506800
471,rantoul,40.3084,-88.1559,22.52,94,{'all': 0},4.39,US,1691506800
472,marsabit,2.3284,37.9899,24.92,36,{'all': 18},8.54,KE,1691506800
473,yakymivka,46.6897,35.1536,30.69,33,{'all': 0},5.65,UA,1691506800
474,kapoeta,4.7717,33.5903,29.88,45,{'all': 86},3.78,SS,1691506800
475,gannan,47.9147,123.5031,16.32,83,{'all': 86},2.94,CN,1691506800
476,gilau,46.7324,23.3617,21.25,64,{'all': 38},1.95,RO,1691506800
477,kovalam,8.3667,76.9967,28.05,89,{'all': 40},6.18,IN,1691506800
478,crane,31.3974,-102.3501,29.65,45,{'all': 93},8.59,US,1691506800
479,zakynthos,37.7914,20.8953,31.49,43,{'all': 20},7.38,GR,1691506800
480,laguna,38.421,-121.4238,18.04,82,{'all': 0},3.2,US,1691506800
481,truro,50.2653,-5.0544,19.57,94,{'all': 75},6.77,GB,1691506800
482,la isla,18.6,-96.15,28.38,80,{'all': 4},1.39,MX,1691506800
483,lwowek slaski,51.1107,15.5858,19.42,56,{'all': 80},5.18,PL,1691506800
484,hargeysa,9.56,44.065,26.06,44,{'all': 75},10.3,SO,1691506800
485,la toma,-33.0526,-65.6238,14.11,19,{'all': 100},6.22,AR,1691506800
486,mukilteo,47.9445,-122.3046,16.18,87,{'all': 100},0.62,US,1691506800
487,necochea,-38.5473,-58.7368,7.61,58,{'all': 100},7.27,AR,1691506800
488,dem'yanovo,60.3511,47.0842,22.32,67,{'all': 0},1.55,RU,1691506800
489,nema,57.5067,50.5011,21.33,65,{'all': 38},3.85,RU,1691506800
490,badiyah,22.45,58.8,36.63,25,{'all': 96},6.56,OM,1691506800
491,kota bharu,6.1333,102.2386,26.66,83,{'all': 20},1.52,MY,1691506800
492,wuchuan,21.4571,110.7659,27.91,78,{'all': 97},2.19,CN,1691506800
493,selfoss,63.9331,-20.9971,16.14,69,{'all': 77},2.15,IS,1691506800
494,marsa alam,25.0757,34.8918,34.73,45,{'all': 0},3.57,EG,1691506800
495,manicore,-5.8092,-61.3003,37.47,33,{'all': 14},0.52,BR,1691506800
496,malpica,43.3228,-8.8105,26.92,54,{'all': 0},6.43,ES,1691506800
497,tamanrasset,22.785,5.5228,37.95,8,{'all': 40},6.85,DZ,1691506800
498,bosaso,11.2842,49.1816,36.99,44,{'all': 0},4.17,SO,1691506800
499,hpa-an,16.8906,97.6333,23.75,98,{'all': 100},1.02,MM,1691506800
500,tafuna,-14.3358,-170.72,27.12,94,{'all': 40},4.53,AS,1691506800
501,prince rupert,54.3161,-130.3201,14.5,100,{'all': 100},1.79,CA,1691506800
502,qusmuryn,52.4503,64.6311,20.8,64,{'all': 100},6.37,KZ,1691506800
503,betheny,49.285,4.055,21.0,56,{'all': 100},3.3,FR,1691506800
504,koulikoro,14.0,-7.75,36.06,33,{'all': 13},4.82,ML,1691506800
505,chinacota,7.6073,-72.6011,28.2,41,{'all': 96},2.19,CO,1691506800
506,victorica,-36.2151,-65.4359,11.74,36,{'all': 100},8.92,AR,1691506800
507,meadow lake,34.8014,-106.5436,24.19,42,{'all': 21},2.38,US,1691506800
508,hovsan,40.3744,50.0853,35.07,41,{'all': 0},3.32,AZ,1691506800
509,sambava,-14.2667,50.1667,22.0,85,{'all': 1},3.91,MG,1691506800
510,eyl,7.9803,49.8164,25.96,75,{'all': 98},13.16,SO,1691506800
511,dongsheng,39.8161,109.9776,26.0,43,{'all': 70},2.3,CN,1691506800
512,chernyshevskiy,63.0128,112.4714,18.17,67,{'all': 56},3.7,RU,1691506800
513,vakhsh,37.7149,68.8346,35.12,26,{'all': 40},2.65,TJ,1691506800
514,luganville,-15.5333,167.1667,22.95,89,{'all': 100},4.46,VU,1691506800
515,ar rutbah,33.0381,40.2848,37.93,10,{'all': 0},4.16,IQ,1691506800
516,gereida,11.2811,25.1414,30.36,53,{'all': 87},3.73,SD,1691506800
517,mount pearl,47.5166,-52.7813,13.44,91,{'all': 100},5.92,CA,1691506800
518,gebeit,21.0667,36.3167,39.41,10,{'all': 8},2.36,SD,1691506800
519,sabha,27.0377,14.4283,37.74,13,{'all': 0},6.08,LY,1691506800
520,ouargla,31.9493,5.325,42.04,12,{'all': 0},4.37,DZ,1691506800
521,holualoa,19.6228,-155.9522,23.35,82,{'all': 0},1.33,US,1691506800
522,thinadhoo,0.5333,72.9333,28.3,69,{'all': 36},1.41,MV,1691506800
523,ufa,54.775,56.0375,24.61,57,{'all': 54},5.75,RU,1691506800
524,colonia,50.9333,6.95,18.71,62,{'all': 75},5.5,DE,1691506800
525,zhezqazghan,47.7833,67.7667,30.32,28,{'all': 40},3.31,KZ,1691506800
526,cidreira,-30.1811,-50.2056,17.2,55,{'all': 98},6.94,BR,1691506800
527,callao,-12.0667,-77.15,21.16,73,{'all': 100},4.68,PE,1691506800
528,gero,-8.7039,121.1881,19.13,92,{'all': 15},1.69,ID,1691506800
529,moyale,3.5167,39.0584,25.33,42,{'all': 94},4.73,KE,1691506800
530,birobidzhan,48.8,132.95,18.09,90,{'all': 100},1.15,RU,1691506800
531,boguchany,58.3814,97.4531,17.18,69,{'all': 49},0.76,RU,1691506800
532,badagry,6.4167,2.8833,27.18,74,{'all': 52},6.55,NG,1691506800
533,falmouth,50.1544,-5.0711,18.67,100,{'all': 100},7.11,GB,1691506800
534,hotan,37.0997,79.9269,28.93,31,{'all': 20},5.67,CN,1691506800
535,conceicao da barra,-18.5933,-39.7322,28.22,56,{'all': 9},3.3,BR,1691506800
536,igarka,67.4667,86.5833,16.86,62,{'all': 66},3.03,RU,1691506800
537,manokwari,-0.8667,134.0833,25.84,81,{'all': 26},1.42,ID,1691506800
538,kavali,14.9167,79.9833,33.77,40,{'all': 100},2.39,IN,1691506800
539,amasra,41.7463,32.3863,27.03,69,{'all': 9},3.92,TR,1691506800
540,naze,28.3667,129.4833,26.32,89,{'all': 100},12.91,JP,1691506800
541,oromocto,45.8351,-66.4792,20.26,83,{'all': 75},3.49,CA,1691506800
542,tosontsengel,48.7567,98.2839,14.13,79,{'all': 100},1.28,MN,1691506800
543,santa marta,11.2408,-74.199,32.72,67,{'all': 52},3.48,CO,1691506800
544,suntar,62.1444,117.6319,21.87,45,{'all': 30},3.79,RU,1691506800
545,uitenhage,-33.7576,25.3971,17.77,80,{'all': 76},6.36,ZA,1691506800
546,undurkhaan,47.3194,110.6556,15.0,76,{'all': 4},1.83,MN,1691506800
547,mahibadhoo,3.7833,72.9667,28.22,75,{'all': 99},3.89,MV,1691506800
548,kirs,59.3388,52.2447,20.11,74,{'all': 64},1.94,RU,1691506800
549,portland,45.5234,-122.6762,17.78,89,{'all': 40},1.02,US,1691506800
550,ola,59.5833,151.2833,8.82,65,{'all': 21},4.72,RU,1691506800
